{"metadata":{"resultset":{"offset":1,"count":11,"limit":50}},"results":[{"elevation":2767,"mindate":"1998-12-13","maxdate":"2023-03-24","latitude":39.5823,"name":"FRISCO 0.5 N, CO US","datacoverage":0.6546,"id":"GHCND:US1COSU0004","elevationUnit":"METERS","longitude":-106.0959},{"elevation":2951.7,"mindate":"2002-12-10","maxdate":"2023-03-24","latitude":39.6239,"name":"SILVERTHORNE 2.1 WSW, CO US","datacoverage":0.6219,"id":"GHCND:US1COSU0006","elevationUnit":"METERS","longitude":-106.1018},{"elevation":2734.1,"mindate":"2003-01-01","maxdate":"2023-03-24","latitude":39.722,"name":"SILVERTHORNE 7.4 NW, CO US","datacoverage":0.2143,"id":"GHCND:US1COSU0008","elevationUnit":"METERS","longitude":-106.137},{"elevation":2485.9,"mindate":"2005-08-11","maxdate":"2023-03-24","latitude":39.9024,"name":"SILVERTHORNE 21 NW, CO US","datacoverage":0.8294,"id":"GHCND:US1COSU0035","elevationUnit":"METERS","longitude":-106.305},{"elevation":2436.6,"mindate":"2013-08-23","maxdate":"2023-03-24","latitude":39.8747596740723,"name":"HEENEY 0.5 NW, CO US","datacoverage":0.898,"id":"GHCND:US1COSU0058","elevationUnit":"METERS","longitude":-106.30786895752},{"elevation":2999.2,"mindate":"2013-05-26","maxdate":"2023-03-05","latitude":39.6169,"name":"SILVERTHORNE 2.8 SSW, CO US","datacoverage":0.601,"id":"GHCND:US1COSU0061","elevationUnit":"METERS","longitude":-106.1092},{"elevation":2660.3,"mindate":"2013-09-08","maxdate":"2023-03-24","latitude":39.653334,"name":"SILVERTHORNE 0.1 NNW, CO US","datacoverage":0.6232,"id":"GHCND:US1COSU0062","elevationUnit":"METERS","longitude":-106.082183},{"elevation":3013.6,"mindate":"2014-06-19","maxdate":"2023-03-22","latitude":39.4819,"name":"BRECKENRIDGE 1.9 SSE, CO US","datacoverage":0.8303,"id":"GHCND:US1COSU0067","elevationUnit":"METERS","longitude":-106.0325},{"elevation":2705.4,"mindate":"2017-12-03","maxdate":"2023-03-23","latitude":39.6652,"name":"SILVERTHORNE 1.0 NNE, CO US","datacoverage":0.7785,"id":"GHCND:US1COSU0069","elevationUnit":"METERS","longitude":-106.0752},{"elevation":2947.4,"mindate":"2020-08-04","maxdate":"2023-03-16","latitude":39.475709,"name":"BRECKENRIDGE 2.2 S, CO US","datacoverage":0.1602,"id":"GHCND:US1COSU0072","elevationUnit":"METERS","longitude":-106.048794},{"elevation":2767.9,"mindate":"1893-01-01","maxdate":"2023-03-24","latitude":39.62455,"name":"DILLON 1 E, CO US","datacoverage":0.8625,"id":"GHCND:USC00052281","elevationUnit":"METERS","longitude":-106.03353}]}